{

  "result": [{
    "html_attributions": [],
    "results": [],
    "status": "ZERO_RESULTS"
  }, {
    "html_attributions": [],
    "results": [{
      "geometry": {
        "location": {
          "lat": 28.673273,
          "lng": 77.257004
        },
        "viewport": {
          "northeast": {
            "lat": 28.6733298,
            "lng": 77.2570129
          },
          "southwest": {
            "lat": 28.6731026,
            "lng": 77.2569773
          }
        }
      },
      "icon": "https://maps.gstatic.com/mapfiles/place_api/icons/geocode-71.png",
      "id": "a86ebc5fa30ea7423a85a50bddba5962f6b12371",
      "name": "110053",
      "place_id": "ChIJc_kiplj8DDkRtuwh5AvirZs",
      "reference": "CnRjAAAApwPsC1caEMQMWHofK5V1Of54v7OYfZ9wObsVafEitK9ozrv2-owc8KA_kB4YILrFs7NniZOKshbrypl-rTz5XbbvMHnDdnpLrOh-mSFw90QokfmsZ2l1UkoYSj3Oy6bminfyMxH5Tps2bWB5rK-emhIQe4mKNPtvJJq_raoDePyHLRoUopgX08SGaYrn4xDPQjf3df3gmFQ",
      "scope": "GOOGLE",
      "types": [
        "liquor_store",
        "store",
        "point_of_interest",
        "establishment"
      ],
      "vicinity": "Zero Pusta"
    }],
    "status": "OK"
  }, {
    "html_attributions": [],
    "results": [{
      "geometry": {
        "location": {
          "lat": 28.673273,
          "lng": 77.257004
        },
        "viewport": {
          "northeast": {
            "lat": 28.6733298,
            "lng": 77.2570129
          },
          "southwest": {
            "lat": 28.6731026,
            "lng": 77.2569773
          }
        }
      },
      "icon": "https://maps.gstatic.com/mapfiles/place_api/icons/geocode-71.png",
      "id": "a86ebc5fa30ea7423a85a50bddba5962f6b12371",
      "name": "110053",
      "place_id": "ChIJc_kiplj8DDkRtuwh5AvirZs",
      "reference": "CnRjAAAAAWHUYMK2IoHExihd6S-SEvy_P9ysfWJKOCaywAdWhByn77eQC3KclLbLKQJrYgRPtxsVQNPCdZtaJQaXWFRUlA_BLqSkLiEHGOxNk20LrxNqo5w8nmpIxfy7WNBAL-US_KwlxAzzc9BtG_b0LeGzixIQLZYjgUPSeGIbDmCK0KnfrRoUU44auK_SHIY9mG6dH171kf0P9VU",
      "scope": "GOOGLE",
      "types": [
        "liquor_store",
        "store",
        "point_of_interest",
        "establishment"
      ],
      "vicinity": "Zero Pusta"
    }, {
      "geometry": {
        "location": {
          "lat": 28.66440099999999,
          "lng": 77.293407
        }
      },
      "icon": "https://maps.gstatic.com/mapfiles/place_api/icons/shopping-71.png",
      "id": "3f7c99e8d0b317dd7cfaee41f69735a0df181954",
      "name": "Govt. Wine And Beer Shop",
      "opening_hours": {
        "open_now": true,
        "weekday_text": []
      },
      "place_id": "ChIJR98Vt2T7DDkRpudN8lI79gQ",
      "reference": "CnRrAAAA35XFOulmj5t_0l3yeSjirG8EAFCZ8u1RGOV-ZTYUnmjAnkLc7xz-oPYyrmXMcsNrYKSXz-NVA55_FPlfn_1j3In1Yn-KgkVWX3_F-zLX2ymUjOq1j_TJTN42Uqf2ueu3Wuvz3tPULBK9AUDkVCoCURIQOg8kaTRFbXxGGU66pvFXohoUTo881zQk_SzX8LgnMfqRgPMxLIQ",
      "scope": "GOOGLE",
      "types": [
        "liquor_store",
        "food",
        "store",
        "point_of_interest",
        "establishment"
      ],
      "vicinity": "Vishwas Road, 60 Foota Road, Block 17, Vishwas Nagar, Shahdara, New Delhi"
    }, {
      "geometry": {
        "location": {
          "lat": 28.6760245,
          "lng": 77.2901246
        }
      },
      "icon": "https://maps.gstatic.com/mapfiles/place_api/icons/geocode-71.png",
      "id": "69856c379222117546dbfa370f2e7f930dc336a6",
      "name": "110032",
      "place_id": "ChIJ86baYn_7DDkRA-EgInX70TI",
      "reference": "CnRjAAAAN6f8xPSIeGjdF_iGSAn3WM7hfS-6KwHTNlyiTFhim6ZPzJ0lq9uIIcG4J9zfnxYAn9gf5LZj7mchd-7G1CD5bac0djVKLAbKg_VfrgLdFVzUaXZlIkfOaR0WkqPw4hrUC1aPuDCF6uCnoSxOADAI-hIQu5tblb_Rg_4BmRaGq5LZyRoUw905DUucLB6Ozm5bqt5y_QPazTU",
      "scope": "GOOGLE",
      "types": [
        "liquor_store",
        "store",
        "point_of_interest",
        "establishment"
      ],
      "vicinity": "West Rohtash Nagar"
    }, {
      "geometry": {
        "location": {
          "lat": 28.6761862,
          "lng": 77.2902335
        },
        "viewport": {
          "northeast": {
            "lat": 28.67623195,
            "lng": 77.29037810000001
          },
          "southwest": {
            "lat": 28.67617095,
            "lng": 77.29018529999999
          }
        }
      },
      "icon": "https://maps.gstatic.com/mapfiles/place_api/icons/shopping-71.png",
      "id": "473674213cc9a2851c2b21361d0eb1b2c4814df1",
      "name": "Angreji Wine Shop",
      "place_id": "ChIJEReb2IH7DDkRcMYSLSwXq3I",
      "reference": "CnRkAAAApM64ue5oKYGzmqrSliV6wyECGnBiRNvwxbfvIP2GgDFBbqLdyQlOCSz9uAYIaNpFfhFVYdvbBbHYMiHtFVX55Hls31xGweguvCBeOUk6GDU3WIFmJohNhTPLJ5oTlXaiJMT_KHVO15elwGE9kewA0hIQJm8z_T8Hdw78CC_7n7-xARoUHIuAp2Vlb7LTq62KNW8xDX-qRjs",
      "scope": "GOOGLE",
      "types": [
        "liquor_store",
        "food",
        "store",
        "point_of_interest",
        "establishment"
      ],
      "vicinity": "Hanuman Road, Kabool Nagar, Shahdara, New Delhi"
    }],
    "status": "OK"
  }, {
    "html_attributions": [],
    "results": [{
      "geometry": {
        "location": {
          "lat": 28.6380766,
          "lng": 77.2875336
        }
      },
      "icon": "https://maps.gstatic.com/mapfiles/place_api/icons/shopping-71.png",
      "id": "3a4e4f3fa1fad4effde8f133c321b6f08a6665e4",
      "name": "DSIDC Liquor Store",
      "place_id": "ChIJVxjRMFb7DDkR81xMHRmVIns",
      "reference": "CnRlAAAAaaJG90xiaLoBfx655OJpww9MfE89Oh5mxcrGnatwIisIM2fUoUJbKf-QoyQFqgZbQbcM_pTHn5vGssEj5O94NBdw3MiJFL8gGhhkHTYL0cUyl6gjJKsWtve6oRvHxKjlKPBpCJDFTzgBVu3sCpXyMRIQJVUmHeH8hZvOw2nDqc-yBxoUgOJrvpofB1OjeHOo550mc_Sqpwo",
      "scope": "GOOGLE",
      "types": [
        "liquor_store",
        "store",
        "point_of_interest",
        "establishment"
      ],
      "vicinity": "Laxmi Nagar, New Delhi"
    }, {
      "geometry": {
        "location": {
          "lat": 28.673273,
          "lng": 77.257004
        },
        "viewport": {
          "northeast": {
            "lat": 28.6733298,
            "lng": 77.2570129
          },
          "southwest": {
            "lat": 28.6731026,
            "lng": 77.2569773
          }
        }
      },
      "icon": "https://maps.gstatic.com/mapfiles/place_api/icons/geocode-71.png",
      "id": "a86ebc5fa30ea7423a85a50bddba5962f6b12371",
      "name": "110053",
      "place_id": "ChIJc_kiplj8DDkRtuwh5AvirZs",
      "reference": "CnRjAAAA2j4G__lbSBYl9mlBvbt0eDFVCTRZ6NHgsrRjgodAakdekrKyI9Fg5hO8yxAENx3ujIaxpX6_pvDX9v1bTgX1_wAIq5smn2mDu8wqEgLDMDVOr07eKCLtD4b8nmY9sAJGWvjXLjddoMtoaC2bg4CashIQ8048Qso1SX5hT6FdnA8rOBoUDWvv5v3KU8bw4YE3i770GzRLg_A",
      "scope": "GOOGLE",
      "types": [
        "liquor_store",
        "store",
        "point_of_interest",
        "establishment"
      ],
      "vicinity": "Zero Pusta"
    }, {
      "geometry": {
        "location": {
          "lat": 28.66440099999999,
          "lng": 77.293407
        }
      },
      "icon": "https://maps.gstatic.com/mapfiles/place_api/icons/shopping-71.png",
      "id": "3f7c99e8d0b317dd7cfaee41f69735a0df181954",
      "name": "Govt. Wine And Beer Shop",
      "opening_hours": {
        "open_now": true,
        "weekday_text": []
      },
      "place_id": "ChIJR98Vt2T7DDkRpudN8lI79gQ",
      "reference": "CnRrAAAAlcL_6JoDJ7FkJWW0xLE23B34Hh0Vu7dkZkwkZD0wp8VbJS2zo2ODWUs-z5aZMuKj_NkF1eN76G0fViQ2G6gE-FAT0DAk3hDApnb1D4jNG0IvBm43VxoRkycFebcfbErty35m3uUBEinvMtvQ08yeERIQ_g2M6nrCy69pQHuCHnZcihoUVgVE_HeIvPxnQPYh3lAQfUhBdOI",
      "scope": "GOOGLE",
      "types": [
        "liquor_store",
        "food",
        "store",
        "point_of_interest",
        "establishment"
      ],
      "vicinity": "Vishwas Road, 60 Foota Road, Block 17, Vishwas Nagar, Shahdara, New Delhi"
    }, {
      "geometry": {
        "location": {
          "lat": 28.6760245,
          "lng": 77.2901246
        }
      },
      "icon": "https://maps.gstatic.com/mapfiles/place_api/icons/geocode-71.png",
      "id": "69856c379222117546dbfa370f2e7f930dc336a6",
      "name": "110032",
      "place_id": "ChIJ86baYn_7DDkRA-EgInX70TI",
      "reference": "CnRjAAAAsiNMBYQwg2YFmTb7HC-HZVRruGvhfwiSYu3hgfyXkwkS4LrOJJmWYl1-tIPfy1LHsuGO7Eay0WlkrU7W9o4MrnZve3tHtKDUDnQIsHQUSTEDaXCzHPZMAonUH_iyY-4kzK4RESfpiwqze6Jk5Fr-exIQMOr-WtBr8oHRGAE-vEeYaRoUav37hPhk4h5YfUjH-QFz1oPeU_Q",
      "scope": "GOOGLE",
      "types": [
        "liquor_store",
        "store",
        "point_of_interest",
        "establishment"
      ],
      "vicinity": "West Rohtash Nagar"
    }, {
      "geometry": {
        "location": {
          "lat": 28.6761862,
          "lng": 77.2902335
        },
        "viewport": {
          "northeast": {
            "lat": 28.67623195,
            "lng": 77.29037810000001
          },
          "southwest": {
            "lat": 28.67617095,
            "lng": 77.29018529999999
          }
        }
      },
      "icon": "https://maps.gstatic.com/mapfiles/place_api/icons/shopping-71.png",
      "id": "473674213cc9a2851c2b21361d0eb1b2c4814df1",
      "name": "Angreji Wine Shop",
      "place_id": "ChIJEReb2IH7DDkRcMYSLSwXq3I",
      "reference": "CnRkAAAAu6EGYu1HZrlzXVzPxxvTFmNJrTRvD1N1PG4p9jetOS17CAOmZTLRQQ57dGjMvx-1itX1QCYBgZ1nC46xZ3QN2ENEPT4vg4TsxIFJQODGdhKFBeOL8r6KzK0cPW-5f8Gzr0tqEwJlz069nb-5NxHDuhIQHDTjtLS6OgKuaVsVtP_7TBoUgTS0xp9vBhhXaYpcwVoALMyqfQc",
      "scope": "GOOGLE",
      "types": [
        "liquor_store",
        "food",
        "store",
        "point_of_interest",
        "establishment"
      ],
      "vicinity": "Hanuman Road, Kabool Nagar, Shahdara, New Delhi"
    }, {
      "geometry": {
        "location": {
          "lat": 28.6591812,
          "lng": 77.2317798
        },
        "viewport": {
          "northeast": {
            "lat": 28.65926025000001,
            "lng": 77.2318371
          },
          "southwest": {
            "lat": 28.65915484999999,
            "lng": 77.23160789999999
          }
        }
      },
      "icon": "https://maps.gstatic.com/mapfiles/place_api/icons/shopping-71.png",
      "id": "ccbe7eb1e4592264cec5671d4280a735373b2503",
      "name": "Govt.Wine And Beer",
      "place_id": "ChIJi-TnKgX9DDkRr-qj9cy0EHY",
      "reference": "CnRlAAAArNFgZpWmubLj7wgH85i_W5d6-_R7I3O14jPOvveKLozDQJh57KX7w60SnSuTQP0kDLf61e_wJ2yWpzNq77bFBqLUZcRd2klxQFva0ybWAdlWX5KXpfgTkIj8srshGz3Hh-WS1jM907bw2czlTWMJVRIQfNkY2QMYfzpjkkNff9WprxoUuwMCo1cUz_tFupnsLwGTZVgmOA8",
      "scope": "GOOGLE",
      "types": [
        "liquor_store",
        "store",
        "point_of_interest",
        "establishment"
      ],
      "vicinity": "Shop No. 2270, HC Sen Marg, Chhippy Wada, Chandni Chowk, New Delhi"
    }, {
      "geometry": {
        "location": {
          "lat": 28.64333299999999,
          "lng": 77.240245
        },
        "viewport": {
          "northeast": {
            "lat": 28.64340275000001,
            "lng": 77.24053284999998
          },
          "southwest": {
            "lat": 28.64330974999999,
            "lng": 77.24014905000001
          }
        }
      },
      "icon": "https://maps.gstatic.com/mapfiles/place_api/icons/shopping-71.png",
      "id": "265401ef991fbea06e4292f5354e04fcc32078e3",
      "name": "Wine and Beer Shop",
      "place_id": "ChIJz77sqCD9DDkRXM6I91AJ5nA",
      "reference": "CnRlAAAABOOXzFggE_w-G9LFEooqsnvK7u00Ot0G7l8kyTr6F_CIJE7BZpe30XKejU4Dt-AU9dp5jino43psp2Q0-_YXUxzHXwjzXxDWMz9Cyi4zYSqQAZWBRyX3mZ7pXxmFctPxc2R8Wth-Nka3cke-dvPY9RIQESy5B8edCaW13mb4ZI6AjRoUxCrnbXijjLH6DGPKlnAzaZIicvs",
      "scope": "GOOGLE",
      "types": [
        "liquor_store",
        "food",
        "store",
        "point_of_interest",
        "establishment"
      ],
      "vicinity": "Shop No-3584,Opp.Police Station, Netaji Subhash Marg, Khabas Pura, Dariya Ganj, New Delhi"
    }, {
      "geometry": {
        "location": {
          "lat": 28.6692882,
          "lng": 77.2953509
        },
        "viewport": {
          "northeast": {
            "lat": 28.6693015,
            "lng": 77.29538865
          },
          "southwest": {
            "lat": 28.6692483,
            "lng": 77.29523764999999
          }
        }
      },
      "icon": "https://maps.gstatic.com/mapfiles/place_api/icons/geocode-71.png",
      "id": "c27288877fb4b695b7d0c6b0b34d2acbd4fe76ca",
      "name": "Circular Road",
      "place_id": "ChIJS1GxS3r7DDkRoSckRvPlAX8",
      "reference": "CrQBowAAAHamXsT4wxo6Dj6ATkPJNkGSokHQIsccAKEHNsco0QXoelKgGqOC64XMtZWGXhDhFfDV_zvMCXN7Ylq4WMA7LFumcIVGNyqGFzPExbQJ-VnX5w0loB7gwMqxli1QmcjwQcl3wzk4RDLYV3qVhyQ_m4Qrjwt-sMhaJ5qR0g-CoshEVSNRP2Y6Qk9GuiyKbCr9zy_wFHJalAsPtQj5hk6WqzZnjWpdC821odKOmRP4RP3yEhDePKYQsjUMkok_ZmJJkevWGhSqceSd09uWxqpLMEqoZt28vm4iLg",
      "scope": "GOOGLE",
      "types": [
        "liquor_store",
        "store",
        "point_of_interest",
        "establishment"
      ],
      "vicinity": "Ambedkar Nagar"
    }, {
      "geometry": {
        "location": {
          "lat": 28.642762,
          "lng": 77.2402939
        },
        "viewport": {
          "northeast": {
            "lat": 28.6427755,
            "lng": 77.24056614999999
          },
          "southwest": {
            "lat": 28.6427575,
            "lng": 77.24020315
          }
        }
      },
      "icon": "https://maps.gstatic.com/mapfiles/place_api/icons/shopping-71.png",
      "id": "691e3632dc71c7aaeae01acade4fa47838bdd617",
      "name": "English Wine & Beer Shop",
      "place_id": "ChIJJTnNqiD9DDkRUfcPn5RnE_8",
      "reference": "CnRsAAAAq-Uj3Mj10Kbm7P8whnxxuLl-mpKf-dqDBpzxv9Ax2M-bMCT7zzfTclX6Hwzh0TUjwoZNpbmtMgNEcyTOEREsfEwsb7njLQ3iokj3uasAuCzNy0kmaY8mtRJTndJjbj-WI7zJPDhlqapkKF3gHjFtURIQR4_SpZ7DIxBO0dR7x89OjBoU2BieTIH7sG8Kk34-hNicsNIN-JE",
      "scope": "GOOGLE",
      "types": [
        "liquor_store",
        "store",
        "point_of_interest",
        "establishment"
      ],
      "vicinity": "3578-79, Netaji Subhash Marg, Kucha Lal Man, Dariya Ganj, New Delhi"
    }, {
      "geometry": {
        "location": {
          "lat": 28.693742,
          "lng": 77.254899
        }
      },
      "icon": "https://maps.gstatic.com/mapfiles/place_api/icons/shopping-71.png",
      "id": "2de99c8c28865d73a76a53689876df2facca0cef",
      "name": "Govt. Wine & Beer Shop",
      "place_id": "ChIJBRwpCEf8DDkRgzrYWskPZDQ",
      "reference": "CnRpAAAApuZfaNlK0DIj414qlss4ZZOTCx9f4OcnQY5Ss3NbOp1NP20nn3tz9TrhxFaO3U-0lTCgsoYAbnNUtCltrLPTk3aly1jeVu98RF0YxxlM0qETP9zA5sYHCrjct1ak1vSPnfa48t6TMhk3GBsD3bbs6hIQDmnLaau4bVRJJdnE5MxORhoUK4LMOB0jfto94WGozMGb_B9RAcU",
      "scope": "GOOGLE",
      "types": [
        "liquor_store",
        "store",
        "point_of_interest",
        "establishment"
      ],
      "vicinity": "L-6, Mansing Road, 4-1/2 Pusta, Gamri Village, Shahdara, New Delhi"
    }],
    "status": "OK"
  }, {
    "html_attributions": [],
    "results": [{
      "geometry": {
        "location": {
          "lat": 28.6380766,
          "lng": 77.2875336
        }
      },
      "icon": "https://maps.gstatic.com/mapfiles/place_api/icons/shopping-71.png",
      "id": "3a4e4f3fa1fad4effde8f133c321b6f08a6665e4",
      "name": "DSIDC Liquor Store",
      "place_id": "ChIJVxjRMFb7DDkR81xMHRmVIns",
      "reference": "CnRlAAAAoygEkpMkXFNcbVLPJNfN8FSEDcW3ozQGVXuJVgvhAX7A2i-DHpphOvCuPF14tmzYSQEx2o2zeC2XBDBWAxUbc2ERp3Xs5-TQ2M0vuQYdFI8Zj0A363eUmk9_KbQZM59XKe-zBGQx1SF-nrvBzamxyhIQ-BpghbK9NPW6DvqwG5UOuRoUt_WuVcjZlhQFsq_N1bSu8o0KT2A",
      "scope": "GOOGLE",
      "types": [
        "liquor_store",
        "store",
        "point_of_interest",
        "establishment"
      ],
      "vicinity": "Laxmi Nagar, New Delhi"
    }, {
      "geometry": {
        "location": {
          "lat": 28.673273,
          "lng": 77.257004
        },
        "viewport": {
          "northeast": {
            "lat": 28.6733298,
            "lng": 77.2570129
          },
          "southwest": {
            "lat": 28.6731026,
            "lng": 77.2569773
          }
        }
      },
      "icon": "https://maps.gstatic.com/mapfiles/place_api/icons/geocode-71.png",
      "id": "a86ebc5fa30ea7423a85a50bddba5962f6b12371",
      "name": "110053",
      "place_id": "ChIJc_kiplj8DDkRtuwh5AvirZs",
      "reference": "CnRjAAAA0bjhK7VLhg6KCnlYyeo--T07222w7qnaWqmgiDS0neYjFJUfK5J6XoAoWxSDaBjfjJ5Em322bRuSyRkH-FuTD6PkGRRBdRiUX2O_YgcWvD1U1hjiBpJKpRfbPFi7cUS6uLOXdXFNQ0_rkVs3W9L-7xIQIzU83FzyMuGQPqs3hrJGZBoUoVKW1007N2hw0kuj01ZkybXNOmc",
      "scope": "GOOGLE",
      "types": [
        "liquor_store",
        "store",
        "point_of_interest",
        "establishment"
      ],
      "vicinity": "Zero Pusta"
    }, {
      "geometry": {
        "location": {
          "lat": 28.66440099999999,
          "lng": 77.293407
        }
      },
      "icon": "https://maps.gstatic.com/mapfiles/place_api/icons/shopping-71.png",
      "id": "3f7c99e8d0b317dd7cfaee41f69735a0df181954",
      "name": "Govt. Wine And Beer Shop",
      "opening_hours": {
        "open_now": true,
        "weekday_text": []
      },
      "place_id": "ChIJR98Vt2T7DDkRpudN8lI79gQ",
      "reference": "CnRrAAAAPmA7j3_FNJ6J0-sQuSqWzzXre4yqx2rCdVRmVu4wCVF3ZJjs1DJhAJTZ_sRcbctCLRI7RjV7m9y2KESBEpr-91ZjO4YkdRFIcQb_BxmnjK17ARmHpfqu8NVJ9wysBStKKQEN5aA7um4tczsW99ss3hIQ78WPTbhBQrDnXPLvv2V1LxoUlR58qGZ4h5Qzhbp-A1HDSuZMLH4",
      "scope": "GOOGLE",
      "types": [
        "liquor_store",
        "food",
        "store",
        "point_of_interest",
        "establishment"
      ],
      "vicinity": "Vishwas Road, 60 Foota Road, Block 17, Vishwas Nagar, Shahdara, New Delhi"
    }, {
      "geometry": {
        "location": {
          "lat": 28.6760245,
          "lng": 77.2901246
        }
      },
      "icon": "https://maps.gstatic.com/mapfiles/place_api/icons/geocode-71.png",
      "id": "69856c379222117546dbfa370f2e7f930dc336a6",
      "name": "110032",
      "place_id": "ChIJ86baYn_7DDkRA-EgInX70TI",
      "reference": "CnRjAAAAPwJq4sFfoeVfLdu67snu6lR8A417bv75g-5nYzk2mSgAy9YxHUZSpqMMYmVaFICSc-kUXrPE6WZ4mppdbJAfrriYPhmLY8x0yK_E2-5TMDFlycLZx_Jk2LZu9FIN-wRFWPg3nex1b3R0DehUt9dfDRIQhy5ZGgtWPoYuoyDnGy9UXBoUDmfWGpLytLoQIaqarCJr57cQeqU",
      "scope": "GOOGLE",
      "types": [
        "liquor_store",
        "store",
        "point_of_interest",
        "establishment"
      ],
      "vicinity": "West Rohtash Nagar"
    }, {
      "geometry": {
        "location": {
          "lat": 28.6761862,
          "lng": 77.2902335
        },
        "viewport": {
          "northeast": {
            "lat": 28.67623195,
            "lng": 77.29037810000001
          },
          "southwest": {
            "lat": 28.67617095,
            "lng": 77.29018529999999
          }
        }
      },
      "icon": "https://maps.gstatic.com/mapfiles/place_api/icons/shopping-71.png",
      "id": "473674213cc9a2851c2b21361d0eb1b2c4814df1",
      "name": "Angreji Wine Shop",
      "place_id": "ChIJEReb2IH7DDkRcMYSLSwXq3I",
      "reference": "CnRkAAAAB8z6KFieYyMjYS3JmDEE4YQCWNn0nNBzAkwCzM71pBxZag9-jadGcBf8RAm5oa3aPVyJ8CfkUErdZIm4mh3SlB5Dpv33paLakhmZdQeZmvzHIsI0-iSGayAjEvth-w6w2dzc4brUNZgfGswXZyTVtBIQjuo5SoYQranFR6x8w_3gHhoU9kyNDU16tjsfpjdTkv_K9li2tN8",
      "scope": "GOOGLE",
      "types": [
        "liquor_store",
        "food",
        "store",
        "point_of_interest",
        "establishment"
      ],
      "vicinity": "Hanuman Road, Kabool Nagar, Shahdara, New Delhi"
    }, {
      "geometry": {
        "location": {
          "lat": 28.6591812,
          "lng": 77.2317798
        },
        "viewport": {
          "northeast": {
            "lat": 28.65926025000001,
            "lng": 77.2318371
          },
          "southwest": {
            "lat": 28.65915484999999,
            "lng": 77.23160789999999
          }
        }
      },
      "icon": "https://maps.gstatic.com/mapfiles/place_api/icons/shopping-71.png",
      "id": "ccbe7eb1e4592264cec5671d4280a735373b2503",
      "name": "Govt.Wine And Beer",
      "place_id": "ChIJi-TnKgX9DDkRr-qj9cy0EHY",
      "reference": "CnRlAAAAIz_tWXkymzU6t0p8PuSDwKlItu-8x4f8q8bejY6WYh-IbgATh6yGL99neh9m_H9hf8dmT7BvfpzVA8XKVELxlyq9rULXCKAGGUTBKSktwQbGPBcTgR6frXEzHSR6pq00DWmJuugeB3trD_bBQrDGIxIQ6LRNENR9ysKKXVIQzQCV0BoU8h0A7189n4h9EnUXG0SHF1wTdgI",
      "scope": "GOOGLE",
      "types": [
        "liquor_store",
        "store",
        "point_of_interest",
        "establishment"
      ],
      "vicinity": "Shop No. 2270, HC Sen Marg, Chhippy Wada, Chandni Chowk, New Delhi"
    }, {
      "geometry": {
        "location": {
          "lat": 28.64333299999999,
          "lng": 77.240245
        },
        "viewport": {
          "northeast": {
            "lat": 28.64340275000001,
            "lng": 77.24053284999998
          },
          "southwest": {
            "lat": 28.64330974999999,
            "lng": 77.24014905000001
          }
        }
      },
      "icon": "https://maps.gstatic.com/mapfiles/place_api/icons/shopping-71.png",
      "id": "265401ef991fbea06e4292f5354e04fcc32078e3",
      "name": "Wine and Beer Shop",
      "place_id": "ChIJz77sqCD9DDkRXM6I91AJ5nA",
      "reference": "CnRlAAAA5O-yjEVCvL5k1sM9k5ZIJlqm2c3G8rYiheGk-Ivuu5cCoNxKlMniXa3z7KVT_IwexdOB578ylYSP8NEDv6axQlv1eLBPz4hjB-MBbK6TQTWnipMeoCG8ZdFPR1QPDK6RfqqOopVkOJAhmiexTH2bNBIQDdMQwAZMsHx637q8PoAzihoUj3bOxCqlaic7qgGigtNSNzy6QJI",
      "scope": "GOOGLE",
      "types": [
        "liquor_store",
        "food",
        "store",
        "point_of_interest",
        "establishment"
      ],
      "vicinity": "Shop No-3584,Opp.Police Station, Netaji Subhash Marg, Khabas Pura, Dariya Ganj, New Delhi"
    }, {
      "geometry": {
        "location": {
          "lat": 28.6692882,
          "lng": 77.2953509
        },
        "viewport": {
          "northeast": {
            "lat": 28.6693015,
            "lng": 77.29538865
          },
          "southwest": {
            "lat": 28.6692483,
            "lng": 77.29523764999999
          }
        }
      },
      "icon": "https://maps.gstatic.com/mapfiles/place_api/icons/geocode-71.png",
      "id": "c27288877fb4b695b7d0c6b0b34d2acbd4fe76ca",
      "name": "Circular Road",
      "place_id": "ChIJS1GxS3r7DDkRoSckRvPlAX8",
      "reference": "CrQBowAAAKjnG3zPvjDXP-696lgGGb6wXBDZu6w2ctUXblnfkoC9vopOtFqkt1z_BeocZ7Xwtqs73F-JwXV3L1-mKgZHYXx03vYAihxmYbc5ni6-DaRwP5G-3l6Bonsh1EmnZhjW26tjUAB5jLk9AG5V_Jy9NI_K24xf485Y-IWRmzLzqMWDyytpu655dpyuqzyMggaeOaTMaJ44ycp8lGSZSmKD-aOAYBVk2QmN8VIIihPZnK8_EhCkYdyu5pL4m-KZWmhP-Kv0GhRdHuyNE1bc71Ro5CrGzR2eiyOLjA",
      "scope": "GOOGLE",
      "types": [
        "liquor_store",
        "store",
        "point_of_interest",
        "establishment"
      ],
      "vicinity": "Ambedkar Nagar"
    }, {
      "geometry": {
        "location": {
          "lat": 28.642762,
          "lng": 77.2402939
        },
        "viewport": {
          "northeast": {
            "lat": 28.6427755,
            "lng": 77.24056614999999
          },
          "southwest": {
            "lat": 28.6427575,
            "lng": 77.24020315
          }
        }
      },
      "icon": "https://maps.gstatic.com/mapfiles/place_api/icons/shopping-71.png",
      "id": "691e3632dc71c7aaeae01acade4fa47838bdd617",
      "name": "English Wine & Beer Shop",
      "place_id": "ChIJJTnNqiD9DDkRUfcPn5RnE_8",
      "reference": "CnRsAAAAAfmIkdJCN_PkPEPf-ig7pCviCiEHBxUbKYtBeIAfywcs9VZTTlztoUuI-0Pdg7hgsK6Oxk2oTZFNYSatqEAO_vmkS-P_BT6gUKJ3TMY4qcggCgBdUrqFEhqmM08d69sKz5VYjHZ2FVSja6J9Ff0ueBIQEZLkHip4bxH9d7CfgUTjuBoUP5Qx4SGrVYmjQw6OjdADpy2OtJQ",
      "scope": "GOOGLE",
      "types": [
        "liquor_store",
        "store",
        "point_of_interest",
        "establishment"
      ],
      "vicinity": "3578-79, Netaji Subhash Marg, Kucha Lal Man, Dariya Ganj, New Delhi"
    }, {
      "geometry": {
        "location": {
          "lat": 28.693742,
          "lng": 77.254899
        }
      },
      "icon": "https://maps.gstatic.com/mapfiles/place_api/icons/shopping-71.png",
      "id": "2de99c8c28865d73a76a53689876df2facca0cef",
      "name": "Govt. Wine & Beer Shop",
      "place_id": "ChIJBRwpCEf8DDkRgzrYWskPZDQ",
      "reference": "CnRpAAAALhj7Dx4RZASvzJVvMiAwQPGtaLopoGeFRGeNxsrgebVAfLBR1P9BYg4J63SDIQSeK0R7FetSlY_PjeF3MmnnkbJJra0qBzNa7gHJ68WhLFzBb96-A279CkXXPyXK6Yjh1bxbHRDXNr8rk0m4z1ozcxIQxoAt4eQ58Q8NJOZrGjVo2RoUBAvd1DDtewY8_63Gm6rTjvNd7p0",
      "scope": "GOOGLE",
      "types": [
        "liquor_store",
        "store",
        "point_of_interest",
        "establishment"
      ],
      "vicinity": "L-6, Mansing Road, 4-1/2 Pusta, Gamri Village, Shahdara, New Delhi"
    }, {
      "geometry": {
        "location": {
          "lat": 28.66039700000001,
          "lng": 77.22170790000001
        }
      },
      "icon": "https://maps.gstatic.com/mapfiles/place_api/icons/shopping-71.png",
      "id": "9b4a4277a81956577b033265c27bd8d13fec3e0a",
      "name": "Sunil Trading Co.",
      "place_id": "ChIJQdCQtw39DDkRtL76UtG9HM0",
      "reference": "CnRlAAAAg1CnyH46o65ovEdTNqAsMWjbRJdfiHn1hWmBUv363aZl1Udlefu5I0UNH30dJnvFAV0pKR3yx2QiyKHwYK3JLfUqPHP3w_fU19NESUSBxQN6xHUYw65jQmrQRE1HJ2wm0uv0_PqwEXe9_XAlRrjm5xIQEO6UWdtFE0yZGT91jZxLDxoUGEYtRUKvvWBTOKPeLgAw3-6TWl0",
      "scope": "GOOGLE",
      "types": [
        "liquor_store",
        "store",
        "point_of_interest",
        "establishment"
      ],
      "vicinity": "Shop No.962, Gali Teliyan, Near Novelty Cinema, New Delhi"
    }, {
      "geometry": {
        "location": {
          "lat": 28.648611,
          "lng": 77.30206
        }
      },
      "icon": "https://maps.gstatic.com/mapfiles/place_api/icons/shopping-71.png",
      "id": "d74a4c41111d219c1cbbc5b905d6edb86744657c",
      "name": "Wine and Beer Shop",
      "opening_hours": {
        "open_now": true,
        "weekday_text": []
      },
      "photos": [{
        "height": 459,
        "html_attributions": [
          "<a href=\"https://maps.google.com/maps/contrib/102568950837952136402/photos\">Manish chauhan</a>"
        ],
        "photo_reference": "CoQBcwAAACUC4yfyOvHsHSn7DhAjsFC_zKmurtQt9by9yQFaRZ8Rn0-t5YCv9cBmKegi64rbSdsqWqTULhfkruPThJlrSyVIejDR7PUgrJfFFnF4bE5oeBr5agmHM9c6aVUovyo5-cEr8hFEnQGx7KITuXiFluFk_eRFXz85AvK-fiB_k6glEhBzVbXyBJbjHV6ap6BdZ8JqGhTsS0bm0XsM4SIJLKimktHxeRWVGQ",
        "width": 816
      }],
      "place_id": "ChIJ5x14dUT7DDkRtQNjveI_Qpc",
      "reference": "CnRmAAAAJHn8fiaWk8ckvybejmi2BRRodtrPNNkdHYdIEpZLXy3KVyQedikNfgw9FCaSGaVgHQuA_sXqApj8nYSrGAODU4rF8hYNmF4iZ1tr3hW4VlE_U4UYtSfLJI1UZ_r4-yU7-F273L2O3AMmhj4CQgfh5RIQ-V7ppCObDDJrB11-ka4W4RoU8n9ws6uZaLJ-JPTPLj0U4FuZ8zU",
      "scope": "GOOGLE",
      "types": [
        "liquor_store",
        "store",
        "point_of_interest",
        "establishment"
      ],
      "vicinity": "Karkar Duma, Karkardooma, Anand Vihar, New Delhi"
    }, {
      "geometry": {
        "location": {
          "lat": 28.6631623,
          "lng": 77.22058270000001
        }
      },
      "icon": "https://maps.gstatic.com/mapfiles/place_api/icons/shopping-71.png",
      "id": "fda29639092bff81c08624e0b9cc70cfb89265da",
      "name": "Wine & Beer Shop",
      "opening_hours": {
        "open_now": true,
        "weekday_text": []
      },
      "place_id": "ChIJqdWKhwz9DDkRAYq_-GX0OB4",
      "reference": "CnRjAAAAQwSwU1z-3YwNMgDTgsVQkegIYAKPU94nqCR4sub_BrLHnMA6EWguZ3YM3WOn2VtCZ2ebIHbXzIE0wpQLPWrj0z4ow76ClWmAt3i0VukOWBUsQ4s3j2g7E8-cR6LElzd5LWETzF8g74MV0WeQfLMyZBIQlpbodzJdCaej8d0MS-g4VRoU5KJx-K_eGZ2dmwdqVQUihKgzWzQ",
      "scope": "GOOGLE",
      "types": [
        "liquor_store",
        "food",
        "store",
        "point_of_interest",
        "establishment"
      ],
      "vicinity": "3909, G.F. Hamilton Road, Mori Gate, Tis Hazari, New Delhi"
    }, {
      "geometry": {
        "location": {
          "lat": 28.647662,
          "lng": 77.222439
        }
      },
      "icon": "https://maps.gstatic.com/mapfiles/place_api/icons/shopping-71.png",
      "id": "ee4e2e0c3d4369b008395cfa07af248e73185637",
      "name": "Wine & Beer Shop",
      "place_id": "ChIJybOm7xX9DDkRfsGaYEy1Cm0",
      "reference": "CnRjAAAAovaugoDparzzy1UfzdAsR52qymsFHJxiRcF6CvD9beTABaLAs23aol1mryAvus7BpkJwg4CZqnlloTAjKXfXtcHo7j-IiyU2MS-Sc3ct59a8_gAZt9368H4pHwn0SjbVimNq4fQsXkJZjOjF1jYbLRIQesNlFY3fjRE_59dEAgKliBoUE7DtYydGzm-iUjfaWV7G5xi-EcM",
      "scope": "GOOGLE",
      "types": [
        "liquor_store",
        "food",
        "store",
        "point_of_interest",
        "establishment"
      ],
      "vicinity": "Shop No. 5201, Shraddhanand Marg., Ajmeri Gate, Ajmeri Gate, New Delhi"
    }, {
      "geometry": {
        "location": {
          "lat": 28.64436809999999,
          "lng": 77.2241434
        },
        "viewport": {
          "northeast": {
            "lat": 28.64442234999999,
            "lng": 77.2242154
          },
          "southwest": {
            "lat": 28.64420535,
            "lng": 77.2239274
          }
        }
      },
      "icon": "https://maps.gstatic.com/mapfiles/place_api/icons/shopping-71.png",
      "id": "b97e0435d1fabb897a8327616fc5ed888f3594b1",
      "name": "Govt. Wine Shop",
      "place_id": "ChIJRz6u2j39DDkR7n5HpwsMT3w",
      "reference": "CnRiAAAAjFL0QYEZHOFeIa4ITuYAVsUkyzJUpMVG6n6Ri2zxXbl1W7tr0dqsvmAZ2KNjpI_k_gAVVSfc-LbyVmNNDaz-xQM0Vx1sCIHL3fSgubn6B66PBBOS7K-dZLlZItdukbcBxATp3y3Je3c6ZbcJ0RD0kBIQBYTHrOA7wN62PRpNzQl3MxoUbZWEe5bgsQwkMc715iEs8lqLk-E",
      "scope": "GOOGLE",
      "types": [
        "liquor_store",
        "store",
        "point_of_interest",
        "establishment"
      ],
      "vicinity": "Shop No.198, Mori Gate Road, Ajmere Gate Road, Kamla Market, Ajmeri Gate, New Delhi"
    }],
    "status": "OK"
  }]
}
